{
  "version": 1,
  "items": [
    {
      "id": "a1",
      "name": "北京",
      "city": "北京市",
      "address": "朝阳区麦子店街道霄云路35号东信广场2层",
      "category": "中餐",
      "location": { "lng": null, "lat": null }
    },
    {
      "id": "a2",
      "name": "廖师",
      "city": "成都市",
      "address": "武侯区人民南路四段17号6-2-3号",
      "category": "中餐",
      "location": { "lng": null, "lat": null }
    },
    {
      "id": "a3",
      "name": "芙蓉凰",
      "city": "成都市",
      "address": "青羊区光华村街66号附7号",
      "category": "中餐",
      "location": { "lng": null, "lat": null }
    },
    {
      "id": "a4",
      "name": "上池面馆",
      "city": "成都市",
      "address": "青羊区上池正街39号附4号",
      "category": "面",
      "location": { "lng": null, "lat": null }
    },
    {
      "id": "a5",
      "name": "永乐饭店",
      "city": "成都市",
      "address": "武侯区肖家河中街36号",
      "category": "中餐",
      "location": { "lng": null, "lat": null }
    },
    {
      "id": "a6",
      "name": "曾记海椒鸭面",
      "city": "成都市",
      "address": "金牛区18中附近",
      "category": "面",
      "location": { "lng": null, "lat": null }
    },
    {
      "id": "a7",
      "name": "黑竹香鸡",
      "city": "成都市",
      "address": "金牛区",
      "category": "中餐",
      "location": { "lng": null, "lat": null }
    },
    {
      "id": "a8",
      "name": "李四哥",
      "city": "成都市",
      "address": "双流区坝街54号",
      "category": "中餐",
      "location": { "lng": null, "lat": null }
    },
    {
      "id": "a9",
      "name": "",
      "city": "成都市",
      "address": "郫都区渔塘坎村",
      "category": "牛肉",
      "location": { "lng": null, "lat": null }
    },
    {
      "id": "a10",
      "name": "奶汤面",
      "city": "邛崃市",
      "address": "东街288号",
      "category": "面",
      "location": { "lng": null, "lat": null }
    },
    {
      "id": "a11",
      "name": "羊肉",
      "city": "邛崃市",
      "address": "南环路88-90号",
      "category": "中餐",
      "location": { "lng": null, "lat": null }
    },
    {
      "id": "a12",
      "name": "向英川",
      "city": "成都市",
      "address": "天回镇",
      "category": "川菜",
      "location": { "lng": null, "lat": null }
    },
    {
      "id": "a13",
      "name": "李记大厨味道",
      "city": "成都市",
      "address": "静居寺",
      "category": "川菜",
      "location": { "lng": null, "lat": null }
    },
    {
      "id": "a14",
      "name": "毛记和",
      "city": "成都市",
      "address": "解放西路",
      "category": "冒菜",
      "location": { "lng": null, "lat": null }
    },
    {
      "id": "a15",
      "name": "三无餐馆",
      "city": "成都市",
      "address": "猛追湾",
      "category": "中餐",
      "location": { "lng": null, "lat": null }
    },
    {
      "id": "a16",
      "name": "杨记江油烧肥肠",
      "city": "成都市",
      "address": "华阳",
      "category": "中餐",
      "location": { "lng": null, "lat": null }
    },
    {
      "id": "a17",
      "name": "曹氏肥肠",
      "city": "成都市",
      "address": "红牌楼",
      "category": "中餐",
      "location": { "lng": null, "lat": null }
    },
    {
      "id": "a18",
      "name": "华新街煎蛋面",
      "city": "成都市",
      "address": "华新街",
      "category": "面",
      "location": { "lng": null, "lat": null }
    },
    {
      "id": "a19",
      "name": "马旺子",
      "city": "眉山市",
      "address": "",
      "category": "中餐",
      "location": { "lng": null, "lat": null }
    },
    {
      "id": "a20",
      "name": "老字号李长清",
      "city": "成都市",
      "address": "温江区",
      "category": "面",
      "location": { "lng": null, "lat": null }
    },
    {
      "id": "a21",
      "name": "新繁肥肠粉",
      "city": "成都市",
      "address": "新都区",
      "category": "面",
      "location": { "lng": null, "lat": null }
    },
    {
      "id": "a22",
      "name": "胡记蹄花面",
      "city": "成都市",
      "address": "外双楠",
      "category": "面",
      "location": { "lng": null, "lat": null }
    },
    {
      "id": "a23",
      "name": "黄记老字号豆花面",
      "city": "成都市",
      "address": "温江区",
      "category": "面",
      "location": { "lng": null, "lat": null }
    },
    {
      "id": "a24",
      "name": "刘记铺盖面",
      "city": "成都市",
      "address": "青羊区",
      "category": "面",
      "location": { "lng": null, "lat": null }
    },
    {
      "id": "a25",
      "name": "冒椒火辣(奎星楼店)",
      "city": "成都市",
      "address": "青羊区奎星楼街",
      "category": "冒菜",
      "location": { "lng": null, "lat": null }
    },
    {
      "id": "a26",
      "name": "小谭豆花",
      "city": "成都市",
      "address": "武侯区",
      "category": "中餐",
      "location": { "lng": null, "lat": null }
    },
    {
      "id": "a27",
      "name": "担担面",
      "city": "成都市",
      "address": "青羊区",
      "category": "面",
      "location": { "lng": null, "lat": null }
    },
    {
      "id": "a28",
      "name": "洞子口张老二凉粉",
      "city": "成都市",
      "address": "金牛区洞子口",
      "category": "中餐",
      "location": { "lng": null, "lat": null }
    },
    {
      "id": "a29",
      "name": "鸡毛店(李家沱店)",
      "city": "成都市",
      "address": "成华区",
      "category": "中餐",
      "location": { "lng": null, "lat": null }
    },
    {
      "id": "a30",
      "name": "杜锅魁",
      "city": "成都市",
      "address": "青羊区",
      "category": "中餐",
      "location": { "lng": null, "lat": null }
    },
    {
      "id": "a31",
      "name": "甘食记肥肠粉(总店)",
      "city": "成都市",
      "address": "青羊区",
      "category": "面",
      "location": { "lng": null, "lat": null }
    },
    {
      "id": "a32",
      "name": "周记锅盔",
      "city": "成都市",
      "address": "武侯区",
      "category": "中餐",
      "location": { "lng": null, "lat": null }
    },
    {
      "id": "a33",
      "name": "钟水饺",
      "city": "成都市",
      "address": "锦江区",
      "category": "中餐",
      "location": { "lng": null, "lat": null }
    },
    {
      "id": "a34",
      "name": "赖汤圆",
      "city": "成都市",
      "address": "锦江区",
      "category": "中餐",
      "location": { "lng": null, "lat": null }
    },
    {
      "id": "a35",
      "name": "龙抄手",
      "city": "成都市",
      "address": "锦江区",
      "category": "中餐",
      "location": { "lng": null, "lat": null }
    },
    {
      "id": "a36",
      "name": "叶婆婆钵钵鸡",
      "city": "成都市",
      "address": "青羊区",
      "category": "中餐",
      "location": { "lng": null, "lat": null }
    },
    {
      "id": "a37",
      "name": "夫妻肺片(总店)",
      "city": "成都市",
      "address": "青羊区",
      "category": "中餐",
      "location": { "lng": null, "lat": null }
    },
    {
      "id": "a38",
      "name": "六婆串串香",
      "city": "成都市",
      "address": "武侯区",
      "category": "中餐",
      "location": { "lng": null, "lat": null }
    },
    {
      "id": "a39",
      "name": "陈麻婆豆腐(总店)",
      "city": "成都市",
      "address": "青羊区",
      "category": "川菜",
      "location": { "lng": null, "lat": null }
    },
    {
      "id": "a40",
      "name": "冒椒火辣(春熙路店)",
      "city": "成都市",
      "address": "锦江区",
      "category": "冒菜",
      "location": { "lng": null, "lat": null }
    },
    {
      "id": "a41",
      "name": "钢管厂五区小郡肝串串香",
      "city": "成都市",
      "address": "锦江区",
      "category": "中餐",
      "location": { "lng": null, "lat": null }
    },
    {
      "id": "a42",
      "name": "蜀大侠火锅",
      "city": "成都市",
      "address": "武侯区",
      "category": "中餐",
      "location": { "lng": null, "lat": null }
    },
    {
      "id": "a43",
      "name": "蜀九香火锅",
      "city"
